{
"type": "FeatureCollection",
"name": "iglesias",
"crs": { "type": "name", "properties": { "name": "urn:ogc:def:crs:OGC:1.3:CRS84" } },
"features": [
{ "type": "Feature", "properties": { "id": 1, "nombre": "ESGLÉSIA PARROQUIAL DEL CRIST REDEMPTOR, EL CABANYAL" }, "geometry": { "type": "Point", "coordinates": [ -0.328635025829815, 39.467878696007432 ] } },
{ "type": "Feature", "properties": { "id": 2, "nombre": "ESGLÉSIA PARROQUIAL DE JESÚS MESTRE" }, "geometry": { "type": "Point", "coordinates": [ -0.362836396388384, 39.461741709859623 ] } },
{ "type": "Feature", "properties": { "id": 3, "nombre": "ESGLÉSIA PARROQUIAL DE L'ÀNGEL CUSTODI" }, "geometry": { "type": "Point", "coordinates": [ -0.363084725890368, 39.465188871538253 ] } },
{ "type": "Feature", "properties": { "id": 4, "nombre": "ESGLÉSIA PARROQUIAL DE LA PASSIÓ DEL SENYOR" }, "geometry": { "type": "Point", "coordinates": [ -0.400587905468271, 39.466835346578833 ] } },
{ "type": "Feature", "properties": { "id": 5, "nombre": "ESGLÉSIA PARROQUIAL DE LA MARE DE DÉU DE LA FONTSANTA" }, "geometry": { "type": "Point", "coordinates": [ -0.408431333630852, 39.464899897706893 ] } },
{ "type": "Feature", "properties": { "id": 6, "nombre": "ESGLÉSIA PARROQUIAL DEL PATRIARCA SANT JOSEP" }, "geometry": { "type": "Point", "coordinates": [ -0.344831843682514, 39.463751714308295 ] } },
{ "type": "Feature", "properties": { "id": 7, "nombre": "ESGLÉSIA PARROQUIAL DE MARIA, MARE DE CRIST (PINEDO)" }, "geometry": { "type": "Point", "coordinates": [ -0.338246890472243, 39.422526078346408 ] } },
{ "type": "Feature", "properties": { "id": 8, "nombre": "ASIL I ESGLÉSIA DE SANTA MÒNICA" }, "geometry": { "type": "Point", "coordinates": [ -0.37474931481946, 39.481907131096953 ] } },
{ "type": "Feature", "properties": { "id": 9, "nombre": "ESGLÉSIA DE LES ESCOLES DE L'AVE MARIA (BENIMÀMET)" }, "geometry": { "type": "Point", "coordinates": [ -0.425213510592184, 39.500521691109384 ] } },
{ "type": "Feature", "properties": { "id": 10, "nombre": "ESGLÉSIA DE LES MARES REPARADORES" }, "geometry": { "type": "Point", "coordinates": [ -0.371145629539493, 39.475642319419457 ] } },
{ "type": "Feature", "properties": { "id": 11, "nombre": "ESGLÉSIA DEL MIRACLE I HOSPITAL DE SACERDOTS POBRES" }, "geometry": { "type": "Point", "coordinates": [ -0.372649375438143, 39.47456726607053 ] } },
{ "type": "Feature", "properties": { "id": 12, "nombre": "ESGLÉSIA DEL SAGRAT COR DE JESÚS (COMPANYIA DE JESÚS)" }, "geometry": { "type": "Point", "coordinates": [ -0.378089013969839, 39.474771310543829 ] } },
{ "type": "Feature", "properties": { "id": 13, "nombre": "ESGLÉSIA DE LA MARE DE DÉU DE L'ASSUMPCIÓ (BENIMACLET)" }, "geometry": { "type": "Point", "coordinates": [ -0.359547061720447, 39.486300382070908 ] } },
{ "type": "Feature", "properties": { "id": 14, "nombre": "ESGLÉSIA DE LA MARE DE DÉU DEL CARME (PARES CARMELITES)" }, "geometry": { "type": "Point", "coordinates": [ -0.370358167772659, 39.483378865494608 ] } },
{ "type": "Feature", "properties": { "id": 15, "nombre": "ESGLÉSIA DE SANT CRISTÒFOL" }, "geometry": { "type": "Point", "coordinates": [ -0.371715437664243, 39.481015593333382 ] } },
{ "type": "Feature", "properties": { "id": 16, "nombre": "ESGLÉSIA DE SANT LLORENÇ" }, "geometry": { "type": "Point", "coordinates": [ -0.375238594943533, 39.477773442483148 ] } },
{ "type": "Feature", "properties": { "id": 17, "nombre": "ESGLÉSIA PARROQUIAL DE SANT JOAN BOSCO" }, "geometry": { "type": "Point", "coordinates": [ -0.386122691458038, 39.48240831907129 ] } },
{ "type": "Feature", "properties": { "id": 18, "nombre": "ESGLÉSIA PARROQUIAL DE SANT JOAN I SANT VICENT" }, "geometry": { "type": "Point", "coordinates": [ -0.370429186934314, 39.468911885396828 ] } },
{ "type": "Feature", "properties": { "id": 19, "nombre": "ESGLÉSIA PARROQUIAL DE SANT LLÀTZER" }, "geometry": { "type": "Point", "coordinates": [ -0.374775987087364, 39.487951334796094 ] } },
{ "type": "Feature", "properties": { "id": 20, "nombre": "ESGLÉSIA PARROQUIAL DE SANT MATEU" }, "geometry": { "type": "Point", "coordinates": [ -0.373056935431796, 39.456134736673647 ] } },
{ "type": "Feature", "properties": { "id": 21, "nombre": "ESGLÉSIA PARROQUIAL DE SANT MIQUEL I SANT SEBASTIÀ" }, "geometry": { "type": "Point", "coordinates": [ -0.387299417978137, 39.475153733807389 ] } },
{ "type": "Feature", "properties": { "id": 22, "nombre": "ESGLÉSIA PARROQUIAL DE SANT PASQUAL BAYLÓN" }, "geometry": { "type": "Point", "coordinates": [ -0.362634165232989, 39.476295262597894 ] } },
{ "type": "Feature", "properties": { "id": 23, "nombre": "ESGLÉSIA PARROQUIAL DE SANT ROC DE BENICALAP" }, "geometry": { "type": "Point", "coordinates": [ -0.391248025137238, 39.4922581750928 ] } },
{ "type": "Feature", "properties": { "id": 24, "nombre": "ESGLÉSIA PARROQUIAL DE LA MARE DE DÉU DE LA MISERICÒRDIA (CAMPANAR)" }, "geometry": { "type": "Point", "coordinates": [ -0.397372359759956, 39.482134175877448 ] } },
{ "type": "Feature", "properties": { "id": 25, "nombre": "ESGLÉSIA PARROQUIAL DE SANT TOMÀS DE VILLANUEVA (PEDANIA LA FONTETA DE SANT LLUÍS)" }, "geometry": { "type": "Point", "coordinates": [ -0.367970982108691, 39.459201898469068 ] } },
{ "type": "Feature", "properties": { "id": 26, "nombre": "ESGLÉSIA I COL·LEGI DELS SALESIANS (LA FONTETA DE SANT LLUÍS)" }, "geometry": { "type": "Point", "coordinates": [ -0.370406533256873, 39.453189996585991 ] } },
{ "type": "Feature", "properties": { "id": 27, "nombre": "ESGLÉSIA DE SANT PAU (INSTITUT LLUÍS VIVES)" }, "geometry": { "type": "Point", "coordinates": [ -0.377764617166032, 39.468406961783131 ] } },
{ "type": "Feature", "properties": { "id": 28, "nombre": "ESGLÉSIA PARROQUIAL DE SANT RAFAEL ARCÀNGEL - EL CABANYAL" }, "geometry": { "type": "Point", "coordinates": [ -0.330476657061931, 39.469839171709118 ] } },
{ "type": "Feature", "properties": { "id": 29, "nombre": "COL·LEGI ESGLÉSIA DE SANT JOSEP DE LA MUNTANYA" }, "geometry": { "type": "Point", "coordinates": [ -0.394152254068169, 39.474239096889214 ] } },
{ "type": "Feature", "properties": { "id": 30, "nombre": "ESGLÉSIA DE SANT JOAN DE L'HOSPITAL" }, "geometry": { "type": "Point", "coordinates": [ -0.372734761398485, 39.474328404277188 ] } },
{ "type": "Feature", "properties": { "id": 31, "nombre": "ESGLÉSIA DE SANT TOMÀS I SANT FELIP NERI" }, "geometry": { "type": "Point", "coordinates": [ -0.372172854865416, 39.473993523295427 ] } },
{ "type": "Feature", "properties": { "id": 32, "nombre": "ESGLÉSIA PARROQUIAL DE LA MARE DE DÉU DEL REMEI" }, "geometry": { "type": "Point", "coordinates": [ -0.367677677900353, 39.4709507834758 ] } },
{ "type": "Feature", "properties": { "id": 33, "nombre": "ESGLÉSIA PARROQUIAL DE LA MARE DE DÉU DEL ROSARI (CANYAMELAR)" }, "geometry": { "type": "Point", "coordinates": [ -0.331757663105656, 39.463255322267813 ] } },
{ "type": "Feature", "properties": { "id": 34, "nombre": "ESGLÉSIA PARROQUIAL DE LA MARE DE DÉU DELS SOCORS" }, "geometry": { "type": "Point", "coordinates": [ -0.385859823304881, 39.465134962220972 ] } },
{ "type": "Feature", "properties": { "id": 35, "nombre": "ESGLÉSIA PARROQUIAL DE LA MARE DE DÉU DELS DESEMPARATS I SANT ISIDRE" }, "geometry": { "type": "Point", "coordinates": [ -0.407325995298335, 39.453390924799407 ] } },
{ "type": "Feature", "properties": { "id": 36, "nombre": "ESGLÉSIA PARROQUIAL DE LA MARE DE DÉU (MONTOLIVET)" }, "geometry": { "type": "Point", "coordinates": [ -0.359269689203196, 39.459232030969751 ] } },
{ "type": "Feature", "properties": { "id": 37, "nombre": "ESGLÉSIA PARROQUIAL DE SANT AGUSTÍ" }, "geometry": { "type": "Point", "coordinates": [ -0.380197022882386, 39.468672366194873 ] } },
{ "type": "Feature", "properties": { "id": 38, "nombre": "ESGLÉSIA PARROQUIAL DE SANT ANDREU APÒSTOL" }, "geometry": { "type": "Point", "coordinates": [ -0.374244997920024, 39.467363179716017 ] } },
{ "type": "Feature", "properties": { "id": 39, "nombre": "ESGLÉSIA PARROQUIAL DE SANT ANTONI ABAD" }, "geometry": { "type": "Point", "coordinates": [ -0.374341331864992, 39.490352700693904 ] } },
{ "type": "Feature", "properties": { "id": 40, "nombre": "ESGLÉSIA PARROQUIAL DE SANT ANTONI DE PÀDUA" }, "geometry": { "type": "Point", "coordinates": [ -0.389747503864487, 39.47558523183114 ] } },
{ "type": "Feature", "properties": { "id": 41, "nombre": "ESGLÉSIA PARROQUIAL DE SANT BERNAT MÀRTIR (POBLE NOU)" }, "geometry": { "type": "Point", "coordinates": [ -0.382678254081954, 39.50296828694664 ] } },
{ "type": "Feature", "properties": { "id": 42, "nombre": "ESGLÉSIA PARROQUIAL DE SANT ISIDOR BISBE" }, "geometry": { "type": "Point", "coordinates": [ -0.363396485151317, 39.482921915064573 ] } },
{ "type": "Feature", "properties": { "id": 43, "nombre": "ESGLÉSIA DE SANTA CATERINA" }, "geometry": { "type": "Point", "coordinates": [ -0.376390828407254, 39.474072816160401 ] } },
{ "type": "Feature", "properties": { "id": 44, "nombre": "ESGLÉSIA PARROQUIAL DE SANT NICOLAU" }, "geometry": { "type": "Point", "coordinates": [ -0.378998319214477, 39.47614061610826 ] } },
{ "type": "Feature", "properties": { "id": 45, "nombre": "ESGLÉSIA PARROQUIAL DE SANT ESTEVE" }, "geometry": { "type": "Point", "coordinates": [ -0.373245740142819, 39.476100795901928 ] } },
{ "type": "Feature", "properties": { "id": 46, "nombre": "ESGLÉSIA DE SANT JOAN DE LA CREU" }, "geometry": { "type": "Point", "coordinates": [ -0.374571537407049, 39.472067814283669 ] } },
{ "type": "Feature", "properties": { "id": 47, "nombre": "ESGLÉSIA PARROQUIAL DE SANT MARTÍ" }, "geometry": { "type": "Point", "coordinates": [ -0.375876439520952, 39.473223386761184 ] } },
{ "type": "Feature", "properties": { "id": 48, "nombre": "ESGLÉSIA DE SANT JOAN DEL MERCAT" }, "geometry": { "type": "Point", "coordinates": [ -0.379137989106352, 39.474278955574611 ] } },
{ "type": "Feature", "properties": { "id": 49, "nombre": "ESGLÉSIA DE LA MARE DE DÉU DEL CARME (PARES CARMELITES)" }, "geometry": { "type": "Point", "coordinates": [ -0.378582404116207, 39.479222994923312 ] } },
{ "type": "Feature", "properties": { "id": 50, "nombre": "REIAL ESGLÉSIA DEL SANTÍSSIM CRIST DEL SALVADOR O ESGLÉSIA DEL SALVADOR" }, "geometry": { "type": "Point", "coordinates": [ -0.373882563697096, 39.477100477286044 ] } },
{ "type": "Feature", "properties": { "id": 51, "nombre": "ESGLÉSIA PARROQUIAL DE LA MARE DE DÉU DE LA BONA GUIA" }, "geometry": { "type": "Point", "coordinates": [ -0.325700628586825, 39.473663823201271 ] } },
{ "type": "Feature", "properties": { "id": 52, "nombre": "ESGLÉSIA PARROQUIAL DE LA MARE DEL DÉU DEL PUIG" }, "geometry": { "type": "Point", "coordinates": [ -0.381099260959724, 39.476907068850672 ] } },
{ "type": "Feature", "properties": { "id": 53, "nombre": "ESGLÉSIA PARROQUIAL DE SANT JOAN DE LA RIBERA" }, "geometry": { "type": "Point", "coordinates": [ -0.353707158391709, 39.466378966635183 ] } },
{ "type": "Feature", "properties": { "id": 54, "nombre": "ESGLÉSIA DE SANT VICENT DE LA ROQUETA (ACTUAL ESGLÉSIA PARROQUIAL DE CRIST REI)" }, "geometry": { "type": "Point", "coordinates": [ -0.382176031771518, 39.463610352622034 ] } },
{ "type": "Feature", "properties": { "id": 55, "nombre": "PALAU I ESGLÉSIA DEL TEMPLE" }, "geometry": { "type": "Point", "coordinates": [ -0.371285095470163, 39.476614995989252 ] } },
{ "type": "Feature", "properties": { "id": 56, "nombre": "10-IGLESIA NUESTRA SEÑORA DE LOS ÁNGELES" }, "geometry": { "type": "Point", "coordinates": [ -0.331907559898434, 39.472587992703446 ] } },
{ "type": "Feature", "properties": { "id": 57, "nombre": "1-IGLESIA DE SANTA MARÍA MAGDALENA" }, "geometry": { "type": "Point", "coordinates": [ -0.385595629193776, 39.528669167570911 ] } },
{ "type": "Feature", "properties": { "id": 58, "nombre": "6-IGLESIA NUESTRA SEÑORA DEL ROSARIO" }, "geometry": { "type": "Point", "coordinates": [ -0.331977878050904, 39.464845159193054 ] } },
{ "type": "Feature", "properties": { "id": 59, "nombre": "1-Iglesia de la Purísima Concepción" }, "geometry": { "type": "Point", "coordinates": [ -0.33971149972846, 39.445548464317433 ] } },
{ "type": "Feature", "properties": { "id": 60, "nombre": "2-Iglesia Nuestra Señora de Gracia" }, "geometry": { "type": "Point", "coordinates": [ -0.391308337773533, 39.435371791615779 ] } },
{ "type": "Feature", "properties": { "id": 61, "nombre": "3-IGLESIA PARROQUIAL DE MARÍA INMACULADA DE VERA" }, "geometry": { "type": "Point", "coordinates": [ -0.329922936914578, 39.484553764903637 ] } },
{ "type": "Feature", "properties": { "id": 62, "nombre": "1-Iglesia de la Asunción y Santa Bárbara" }, "geometry": { "type": "Point", "coordinates": [ -0.403806801666678, 39.538484633098172 ] } },
{ "type": "Feature", "properties": { "id": 63, "nombre": "3-Iglesia de Santa Ana" }, "geometry": { "type": "Point", "coordinates": [ -0.390569265327303, 39.515201920459035 ] } },
{ "type": "Feature", "properties": { "id": 64, "nombre": "2-IGLESIA DEL SAGRADO CORAZÓN DE JESÚS" }, "geometry": { "type": "Point", "coordinates": [ -0.391812849480509, 39.462710660898736 ] } },
{ "type": "Feature", "properties": { "id": 65, "nombre": "1-Iglesia Cristo de la Agonía" }, "geometry": { "type": "Point", "coordinates": [ -0.376903534947018, 39.432444980845823 ] } },
{ "type": "Feature", "properties": { "id": 66, "nombre": "1-Iglesia Santos Abdón y Senén" }, "geometry": { "type": "Point", "coordinates": [ -0.378161496638707, 39.516858267469999 ] } },
{ "type": "Feature", "properties": { "id": 67, "nombre": "6-IGLESIA NUESTRA SEÑORA DEL ROSARIO" }, "geometry": { "type": "Point", "coordinates": [ -0.331961204018705, 39.464842434114253 ] } },
{ "type": "Feature", "properties": { "id": 68, "nombre": "2-Iglesia Nuestra Señora de Lepanto" }, "geometry": { "type": "Point", "coordinates": [ -0.363553655627432, 39.429415475987945 ] } }
]
}
